City_ID,City,Lat,Lng,Max Temp,Humidity,Cloudiness,Wind Speed,Country,Date
0,ushuaia,-54.8,-68.3,276.96,75,75,7.2,AR,1688924811
1,hanceville,34.0607,-86.7675,302.29,51,75,2.7,US,1688924811
2,edinburgh of the seven seas,-37.0676,-12.3116,288.38,84,100,9.94,SH,1688924811
3,lihue,21.9789,-159.3672,297.92,81,100,10.29,US,1688924811
4,choyr,46.3611,108.3611,292.87,53,74,2.29,MN,1688924811
5,grytviken,-54.2811,-36.5092,267.37,81,70,4.42,GS,1688924811
6,nemuro,43.3236,145.575,287.96,100,89,3.76,JP,1688924812
7,papao,-17.75,-149.55,298.97,84,30,11.39,PF,1688924812
8,kidal,18.4411,1.4078,313.54,13,7,2.03,ML,1688924812
9,ngerengere,-6.75,38.1167,296.51,70,82,1.89,TZ,1688924812
10,iqaluit,63.7506,-68.5145,279.0,86,100,4.12,CA,1688924812
11,fredericton,45.9454,-66.6656,299.5,68,20,3.09,CA,1688924108
12,port-aux-francais,-49.35,70.2167,274.55,57,67,8.54,TF,1688924813
13,antofagasta,-23.65,-70.4,290.75,70,84,2.99,CL,1688924813
14,kenai,60.5544,-151.2583,286.01,86,75,1.54,US,1688924813
15,bethel,41.3712,-73.414,301.31,76,40,5.14,US,1688924813
16,coyhaique,-45.5752,-72.0662,277.12,75,40,1.54,CL,1688924813
17,puerto natales,-51.7236,-72.4875,274.4,75,20,3.09,CL,1688924813
18,ribeira grande,38.5167,-28.7,294.69,100,75,2.24,PT,1688924814
19,blackmans bay,-43.0167,147.3167,286.22,71,73,5.42,AU,1688924814
20,devoto,-31.4043,-62.3063,290.13,79,100,2.26,AR,1688924814
21,adamstown,-25.066,-130.1015,294.45,74,100,7.87,PN,1688924814
22,port elizabeth,-33.918,25.5701,283.88,94,75,3.09,ZA,1688924814
23,port alfred,-33.5906,26.891,286.24,70,98,8.41,ZA,1688924814
24,vorgashor,67.5833,63.95,281.97,76,84,4.62,RU,1688924814
25,priozersk,61.0393,30.1291,288.2,91,57,1.39,RU,1688924815
26,hermanus,-34.4187,19.2345,280.82,68,17,3.74,ZA,1688924815
27,wailua homesteads,22.0669,-159.378,297.59,85,100,10.29,US,1688924815
28,san patricio,28.017,-97.5169,309.3,44,0,7.56,US,1688924815
29,jamestown,42.097,-79.2353,297.6,73,100,2.06,US,1688924672
30,faya-largeau,17.9257,19.1043,309.31,14,25,4.54,TD,1688924815
31,yellowknife,62.456,-114.3525,289.44,44,75,6.17,CA,1688924246
32,udachny,66.4167,112.4,293.4,52,24,6.58,RU,1688924816
33,arima,10.6333,-61.2833,304.89,83,20,7.72,TT,1688924816
34,iskateley,67.6803,53.1512,279.51,75,99,3.7,RU,1688924816
35,kill devil hills,36.0307,-75.676,303.7,71,40,5.66,US,1688924816
36,amboanjo,-22.6667,47.8167,293.5,89,3,3.18,MG,1688924816
37,gaspe,48.8334,-64.4819,297.27,78,75,5.14,CA,1688924816
38,albany,42.6001,-73.9662,301.38,89,100,0.72,US,1688924668
39,kodiak,57.79,-152.4072,283.88,71,75,4.63,US,1688924817
40,at taj,24.2049,23.2857,305.82,18,1,5.32,LY,1688924817
41,walvis bay,-22.9575,14.5053,290.68,42,0,7.2,NA,1688924817
42,hadibu,12.65,54.0333,299.4,69,14,7.46,YE,1688924817
43,guerrero negro,27.9769,-114.0611,295.46,57,9,5.17,MX,1688924817
44,ulanhot,46.0833,122.0833,292.09,92,99,3.17,CN,1688924817
45,marka,1.7159,44.7717,298.49,84,46,8.7,SO,1688924818
46,tocopilla,-22.092,-70.1979,292.46,67,63,2.82,CL,1688924818
47,shizilu,35.1711,118.8289,300.28,67,68,1.9,CN,1688924828
48,tazovsky,67.4667,78.7,281.33,80,92,4.27,RU,1688924828
49,rongelap,11.1635,166.8941,301.35,76,95,8.03,MH,1688924828
50,ilulissat,69.2167,-51.1,284.16,62,75,1.54,GL,1688924829
51,avarua,-21.2078,-159.775,298.18,94,1,5.14,CK,1688924829
52,isafjordur,66.0755,-23.124,282.17,87,20,4.63,IS,1688924830
53,la cruz,23.9167,-106.9,307.7,49,71,2.68,MX,1688924830
54,enewetak,11.3474,162.3373,301.33,80,100,5.58,MH,1688924830
55,fort mcmurray,56.7268,-111.381,294.92,64,0,1.54,CA,1688924757
56,i-n-salah,27.1935,2.4607,314.8,5,0,5.08,DZ,1688924831
57,invercargill,-46.4,168.35,277.21,95,17,1.5,NZ,1688924831
58,west island,-12.1568,96.8225,299.14,65,88,6.69,CC,1688924831
59,constantia,44.1833,28.65,298.53,48,63,6.45,RO,1688924831
60,waitangi,-43.9535,-176.5597,283.61,90,99,3.58,NZ,1688924831
61,ust-nera,64.5667,143.2,277.6,84,53,2.32,RU,1688924832
62,bilibino,68.0546,166.4372,288.21,60,74,1.16,RU,1688924832
63,stanthorpe,-28.6667,151.95,278.94,81,31,1.5,AU,1688924833
64,fort bragg,35.139,-79.006,305.23,73,75,10.29,US,1688924606
65,talnakh,69.4865,88.3972,284.38,73,99,3.02,RU,1688924833
66,suntar,62.1444,117.6319,286.72,66,58,1.94,RU,1688924833
67,thompson,55.7435,-97.8558,287.24,51,75,7.72,CA,1688924833
68,dakhla,23.6848,-15.958,297.16,69,2,11.83,EH,1688924834
69,mount gambier,-37.8333,140.7667,284.47,84,100,4.02,AU,1688924834
70,belfast,54.5833,-5.9333,292.05,68,20,4.63,GB,1688924555
71,villa dolores,-31.9459,-65.1896,290.63,68,100,1.84,AR,1688924834
72,tamandare,-8.7597,-35.1047,299.38,80,48,4.2,BR,1688924834
73,mount isa,-20.7333,139.5,287.02,44,18,5.66,AU,1688924835
74,south hedland,-20.4089,118.5983,290.11,36,75,3.6,AU,1688924835
75,sakakah,29.9697,40.2064,308.91,15,1,5.77,SA,1688924835
76,fale old settlement,-9.3852,-171.2468,301.76,78,97,7.69,TK,1688924835
77,whitehorse,60.7161,-135.0538,290.58,34,40,2.57,CA,1688924835
78,gulf breeze,30.3571,-87.1639,305.65,76,0,2.06,US,1688924835
79,san antonio de pale,-1.4014,5.6325,296.94,77,97,4.68,GQ,1688924836
80,olonkinbyen,70.9221,-8.7187,275.55,91,61,8.28,SJ,1688924836
81,port douglas,-16.4833,145.4667,294.16,74,99,5.01,AU,1688924813
82,sarikei,2.1167,111.5167,298.2,99,84,0.98,MY,1688924836
83,bredasdorp,-34.5322,20.0403,281.75,75,66,1.91,ZA,1688924836
84,rahuri,19.3833,74.65,298.15,77,100,6.19,IN,1688924837
85,susuman,62.7833,148.1667,274.45,86,100,2.01,RU,1688924837
86,fort st. john,56.2499,-120.8529,296.09,53,0,3.6,CA,1688924817
87,coquimbo,-29.9533,-71.3436,289.0,63,0,4.12,CL,1688924837
88,aasiaat,68.7098,-52.8699,278.09,93,68,0.55,GL,1688924837
89,sechura,-5.5569,-80.8222,300.08,61,88,4.37,PE,1688924837
90,eraan,9.0629,117.7016,298.92,87,96,0.93,PH,1688924838
91,la sarre,48.8002,-79.1996,293.78,67,66,2.45,CA,1688924838
92,hamilton,39.1834,-84.5333,299.75,67,75,4.12,US,1688924828
93,waingapu,-9.6567,120.2641,296.43,84,79,4.19,ID,1688924848
94,afaahiti,-17.75,-149.2833,298.08,85,57,10.56,PF,1688924848
95,praia da vitoria,38.7333,-27.0667,298.29,73,20,2.15,PT,1688924849
96,chiredzi,-21.05,31.6667,292.31,33,0,1.06,ZW,1688924849
97,selkirk,50.1436,-96.8845,301.53,71,98,4.52,CA,1688924768
98,antsiranana,-12.2787,49.2917,296.84,75,17,6.06,MG,1688924849
99,hirara,24.8,125.2833,301.07,89,20,4.12,JP,1688924849
100,jeddah,21.5169,39.2192,308.07,26,0,5.14,SA,1688924850
101,stanley,54.868,-1.6985,295.66,53,20,3.6,GB,1688924850
102,cadale,2.7603,46.3222,298.87,81,41,9.32,SO,1688924850
103,contamana,-7.3333,-75.0167,301.19,64,87,2.47,PE,1688924850
104,la passe,45.5549,-0.8967,300.28,68,74,5.77,FR,1688924850
105,nyurba,63.2842,118.3319,287.34,75,27,2.98,RU,1688924850
106,badger,64.8,-147.5333,292.11,69,40,0.45,US,1688924850
107,lincoln city,44.9582,-124.0179,292.42,77,33,0.89,US,1688924565
108,margaret river,-33.95,115.0667,288.56,79,46,6.56,AU,1688924851
109,anshun,26.25,105.9333,292.42,97,95,2.45,CN,1688924851
110,toliara,-23.35,43.6667,294.74,70,6,2.22,MG,1688924851
111,college,64.8569,-147.8028,292.15,66,75,0.0,US,1688924851
112,saipan,15.1355,145.701,303.54,100,0,5.66,MP,1688924851
113,kuqa,41.7278,82.9364,296.18,44,98,6.4,CN,1688924852
114,knyaze-volkonskoye,48.4642,135.4567,292.34,91,86,2.05,RU,1688924852
115,isiro,2.7739,27.616,292.69,95,76,0.99,CD,1688924852
116,nanding,36.7483,118.0558,303.54,32,44,2.64,CN,1688924852
117,miyoshi,35.0833,137.0667,299.05,54,71,0.49,JP,1688924852
118,hamirpur,25.95,80.15,304.12,72,97,2.82,IN,1688924852
119,happy valley-goose bay,53.3168,-60.3315,295.32,68,20,4.12,CA,1688924786
120,tiksi,71.6872,128.8694,276.36,68,1,1.97,RU,1688924853
121,inarajan village,13.2736,144.7484,299.69,98,100,4.69,GU,1688924853
122,klyuchi,52.2667,79.1667,292.38,57,80,3.72,RU,1688924853
123,santa marta de ortigueira,43.6833,-7.85,294.4,75,49,2.24,ES,1688924853
124,ukata,10.8312,5.8249,297.91,83,96,1.87,NG,1688924853
125,qaqortoq,60.7167,-46.0333,284.14,64,83,1.63,GL,1688924853
126,namtsy,62.7161,129.6658,288.02,56,100,4.06,RU,1688924853
127,hasaki,35.7333,140.8333,300.37,88,77,5.15,JP,1688924854
128,hawaiian paradise park,19.5933,-154.9731,298.17,85,100,2.06,US,1688924854
129,saynshand,44.8824,110.1163,298.65,31,71,1.14,MN,1688924854
130,puerto ayora,-0.7393,-90.3518,304.13,89,12,3.13,EC,1688924608
131,palmer,42.1584,-72.3287,301.8,72,75,1.54,US,1688924816
132,pisco,-13.7,-76.2167,294.18,73,0,3.6,PE,1688924854
133,morehead city,34.7229,-76.726,305.16,81,75,5.66,US,1688924854
134,cabo san lucas,22.8909,-109.9124,303.74,89,75,7.72,MX,1688924854
135,arraial do cabo,-22.9661,-42.0278,296.13,83,75,4.63,BR,1688924603
136,kudahuvadhoo,2.6708,72.8944,301.16,70,6,2.47,MV,1688924855
137,mukalla,14.5425,49.1242,305.36,69,100,1.93,YE,1688924855
138,sao joao da barra,-21.6403,-41.0511,299.2,62,8,7.95,BR,1688924855
139,silver city,32.7701,-108.2803,307.39,22,0,4.92,US,1688924855
140,aberystwyth,52.4155,-4.0829,293.64,77,47,3.86,GB,1688924866
141,thunder bay,48.4001,-89.3168,294.14,56,75,3.6,CA,1688924866
142,ancud,-41.8697,-73.8203,281.81,76,91,2.82,CL,1688924866
143,najran,17.4924,44.1277,308.51,12,100,2.28,SA,1688924866
144,vrangel',42.7297,133.0839,290.95,92,98,0.88,RU,1688924866
145,lebu,-37.6167,-73.65,284.63,57,60,1.18,CL,1688924867
146,kasempa,-13.4584,25.8338,288.64,36,0,0.67,ZM,1688924867
147,levuka,50.1834,-105.4011,298.99,31,1,5.48,CA,1688924868
148,geraldton,-28.7667,114.6,280.38,93,0,4.12,AU,1688924868
149,tete,-16.1564,33.5867,296.2,46,20,0.0,MZ,1688924868
150,papatowai,-46.5619,169.4708,279.89,92,100,1.06,NZ,1688924868
151,tazacorte,28.629,-17.9293,297.69,91,20,4.63,ES,1688924868
152,labytnangi,66.6572,66.4183,283.02,86,99,4.7,RU,1688924869
153,newman,37.3138,-121.0208,296.51,24,0,0.39,US,1688924869
154,vilhena,-12.7406,-60.1458,304.27,42,20,4.63,BR,1688924869
155,duyun,26.2667,107.5167,295.44,95,87,3.34,CN,1688924869
156,inyonga,-6.7167,32.0667,293.83,45,25,0.83,TZ,1688924869
157,rizokarpaso,35.6,34.375,299.67,75,0,7.78,CY,1688924869
158,sitka,57.0531,-135.33,286.09,67,100,5.66,US,1688924869
159,nar'yan-mar,67.6713,53.087,279.46,76,100,3.71,RU,1688924870
160,ambon,-3.6954,128.1814,299.75,95,40,3.09,ID,1688924870
161,tahe,52.3333,124.7333,285.24,69,50,1.47,CN,1688924870
162,rock springs,41.5875,-109.2029,299.29,43,0,1.54,US,1688924599
163,natchez,31.5604,-91.4032,303.27,70,75,5.14,US,1688924870
164,tosontsengel,48.7567,98.2839,284.99,92,97,1.32,MN,1688924870
165,severo-yeniseyskiy,60.3725,93.0408,288.38,97,100,1.98,RU,1688924870
166,saldanha,-33.0117,17.9442,283.18,71,1,7.96,ZA,1688924871
167,homer,59.6425,-151.5483,287.06,67,75,3.6,US,1688924770
168,pacific grove,36.6177,-121.9166,292.25,76,100,3.13,US,1688924871
169,zouerate,22.7187,-12.4521,313.93,10,3,8.55,MR,1688924871
170,flying fish cove,-10.4217,105.6791,297.97,94,100,5.66,CX,1688924871
171,nova sintra,14.8667,-24.7167,294.95,82,27,8.13,CV,1688924871
172,lazaro cardenas,17.9583,-102.2,300.96,75,100,1.12,MX,1688924871
173,anadyr,64.75,177.4833,286.43,71,0,3.0,RU,1688924871
174,maragogi,-9.0122,-35.2225,299.56,77,26,4.43,BR,1688924871
175,peterhead,57.5058,-1.7981,294.37,79,100,6.59,GB,1688924872
176,lompoc,34.6391,-120.4579,292.51,88,100,4.63,US,1688924872
177,aykhal,66.0,111.5,291.0,60,46,6.07,RU,1688924872
178,canmore,51.0834,-115.3521,299.16,40,1,1.54,CA,1688924709
179,tangalle,6.024,80.7911,299.3,82,48,5.38,LK,1688924872
180,kiknur,57.3034,47.2011,289.86,97,100,2.79,RU,1688924872
181,pasuquin,18.3328,120.6177,299.96,82,3,3.25,PH,1688924872
182,dhanaura,28.9667,78.25,297.91,97,100,3.19,IN,1688924872
183,inhambane,-23.865,35.3833,296.14,88,0,4.12,MZ,1688924873
184,puerto gaitan,4.3133,-72.0816,303.18,62,52,2.62,CO,1688924873
185,salalah,17.0151,54.0924,300.2,94,75,2.06,OM,1688924873
186,zhongshu,24.5167,103.7667,290.3,97,97,1.96,CN,1688924873
187,longyearbyen,78.2186,15.6401,282.06,71,75,5.66,SJ,1688924873
188,lerwick,60.1545,-1.1494,288.15,84,98,6.15,GB,1688924873
189,iron mountain,45.8202,-88.066,297.37,51,40,4.12,US,1688924879
190,vizinga,61.0749,50.1031,287.15,85,100,1.72,RU,1688924884
191,yongchuan,29.3514,105.8947,299.42,83,12,1.33,CN,1688924884
192,revda,56.801,59.9303,294.28,66,58,2.64,RU,1688924884
193,kralendijk,12.15,-68.2667,305.14,66,75,9.26,BQ,1688924625
194,pont rouge,48.8833,-72.0825,300.31,49,62,3.49,CA,1688924884
195,kuta,-8.7233,115.1723,299.12,88,40,3.13,ID,1688924885
196,port saint john's,-31.6229,29.5448,286.47,67,14,9.59,ZA,1688924885
197,lata,40.1629,-8.3327,295.41,44,3,4.33,PT,1688924885
198,port augusta,-32.5,137.7667,285.78,59,82,2.15,AU,1688924885
199,conde,-7.2597,-34.9075,300.85,69,75,5.66,BR,1688924886
200,acarau,-2.8856,-40.12,302.38,67,29,8.7,BR,1688924886
201,shenjiamen,29.9576,122.298,297.47,97,100,7.59,CN,1688924886
202,sao gabriel da cachoeira,-0.1303,-67.0892,303.49,62,27,0.92,BR,1688924886
203,neiafu,-18.65,-173.9833,289.53,100,20,0.0,TO,1688924886
204,namibe,-15.1961,12.1522,290.8,85,4,2.26,AO,1688924886
205,hammerfest,70.6634,23.6821,284.4,71,0,4.12,NO,1688924887
206,bulgan,48.8125,103.5347,287.94,90,86,1.44,MN,1688924887
207,madinat ash shamal,26.1293,51.2009,305.84,60,1,3.39,QA,1688924887
208,kourou,5.1552,-52.6478,303.18,71,26,2.39,GF,1688924887
209,windhoek,-22.5594,17.0832,283.26,42,0,2.06,NA,1688924887
210,carnarvon,-24.8667,113.6333,289.16,61,0,6.48,AU,1688924887
211,acapulco de juarez,16.8634,-99.8901,302.05,74,75,2.57,MX,1688924593
212,verbilki,56.5333,37.6,288.95,82,100,3.07,RU,1688924888
213,prince rupert,54.3161,-130.3201,285.2,89,100,3.6,CA,1688924888
214,mount pearl,47.5166,-52.7813,292.29,89,100,2.57,CA,1688924668
215,mafeteng,-29.823,27.2374,274.63,49,56,4.86,LS,1688924888
216,mimizan,44.2006,-1.2289,300.52,74,4,4.78,FR,1688924889
217,georgetown,5.4112,100.3354,301.11,84,20,1.03,MY,1688924699
218,kapuskasing,49.4169,-82.4331,293.2,56,75,3.09,CA,1688924889
219,chelno-vershiny,54.4333,51.1,297.24,61,100,4.56,RU,1688924889
220,kailua-kona,19.6406,-155.9956,298.43,85,75,4.12,US,1688924889
221,chonchi,-42.6128,-73.8092,282.1,78,99,1.45,CL,1688924889
222,keflavik,64.0049,-22.5624,288.1,67,0,7.72,IS,1688924890
223,ubon ratchathani,15.1667,105.1667,298.09,86,29,3.63,TH,1688924890
224,kayangel,8.0823,134.7173,301.76,77,70,4.28,PW,1688924890
225,midvagur,62.0511,-7.1939,289.61,77,75,4.63,FO,1688924890
226,tir pul,34.5943,61.269,302.22,18,0,6.27,AF,1688924890
227,madras,13.0878,80.2785,300.14,89,75,3.09,IN,1688924658
228,launceston,-41.45,147.1667,285.01,85,96,6.69,AU,1688924891
229,colonia,50.9333,6.95,296.43,84,0,2.57,DE,1688924891
230,illizi,26.4833,8.4667,313.04,13,47,7.7,DZ,1688924892
231,tralee,52.2704,-9.7026,290.51,66,37,2.98,IE,1688924893
232,sinabang,2.4803,96.3801,299.39,84,92,2.43,ID,1688924893
233,gore,-46.1028,168.9436,276.16,97,35,0.94,NZ,1688924893
234,burang,30.25,81.1667,284.01,85,83,2.47,CN,1688924893
235,palasa,18.7667,84.4167,301.18,81,96,1.22,IN,1688924893
236,igarka,67.4667,86.5833,283.44,83,21,3.55,RU,1688924809
237,viedma,-40.8135,-62.9967,283.85,59,32,6.45,AR,1688924904
238,remire-montjoly,4.9167,-52.2667,303.17,66,0,2.06,GF,1688924904
239,namdrik,5.5994,168.1028,301.04,79,100,3.47,MH,1688924904
240,greenville,35.6127,-77.3663,306.55,70,75,1.34,US,1688924721
241,kendari,-3.945,122.4989,296.02,88,99,1.44,ID,1688924905
242,villa gesell,-37.2639,-56.973,284.85,88,100,3.9,AR,1688924905
243,luderitz,-26.6481,15.1594,287.81,47,0,10.97,NA,1688924905
244,bereeda,11.8704,51.0579,303.81,56,34,3.62,SO,1688924906
245,okhotsk,59.3833,143.3,285.03,77,99,5.37,RU,1688924906
246,daru,-9.0763,143.2092,298.42,85,64,8.04,PG,1688924906
247,punalur,9.0,76.9333,297.69,94,22,1.35,IN,1688924906
248,tolanaro,-25.0319,46.9987,296.19,78,20,4.12,MG,1688924906
249,kingston,17.997,-76.7936,307.17,64,20,11.32,JM,1688924906
250,tsiombe,-25.3,45.4833,293.57,78,0,1.9,MG,1688924907
251,anton lizardo,19.05,-95.9833,303.83,69,100,2.56,MX,1688924907
252,uturoa,-16.7333,-151.4333,299.86,78,79,10.09,PF,1688924907
253,byerazino,53.8391,28.9879,290.92,63,86,3.08,BY,1688924907
254,el granada,37.5027,-122.4694,293.66,82,75,6.69,US,1688924666
255,lockwood,45.8191,-108.4149,300.73,49,0,6.69,US,1688924908
256,port lincoln,-34.7333,135.8667,286.52,73,100,5.02,AU,1688924908
257,safaga,26.7292,33.9365,304.65,43,0,3.86,EG,1688924908
258,nagornyy,52.7959,83.5498,289.06,81,53,1.7,RU,1688924908
259,codrington,-38.2667,141.9667,283.56,94,100,4.87,AU,1688924908
260,weno,7.4515,151.8468,299.12,94,100,2.57,FM,1688924909
261,floro,61.5996,5.0328,300.19,49,20,2.57,NO,1688924909
262,hithadhoo,-0.6,73.0833,300.62,70,48,1.37,MV,1688924909
263,kalamb,19.05,73.95,296.34,85,100,6.23,IN,1688924909
264,siguiri,11.6667,-9.5,307.0,39,74,2.26,GN,1688924909
265,selfoss,63.9331,-20.9971,296.51,56,98,1.28,IS,1688924910
266,malabar,-33.9667,151.25,285.95,71,0,3.6,AU,1688924910
267,awjilah,29.1081,21.2869,306.97,21,0,3.82,LY,1688924910
268,negresti,46.8333,27.4333,298.26,48,68,4.54,RO,1688924910
269,turpan,42.9333,89.1667,305.32,28,99,3.91,CN,1688924910
270,as sulaymaniyah,35.5611,45.4375,303.39,19,0,3.6,IQ,1688924911
271,sabzevar,36.2126,57.6819,302.93,14,0,4.23,IR,1688924911
272,east end,34.5507,-92.341,297.99,87,94,2.62,US,1688924911
273,vuktyl,63.8567,57.3094,283.97,90,90,3.1,RU,1688924911
274,formosa,-26.1775,-58.1781,300.35,72,75,1.03,AR,1688924911
275,port mathurin,-19.6833,63.4167,297.04,64,24,11.13,MU,1688924911
276,chibougamau,49.9168,-74.3659,292.94,83,100,3.09,CA,1688924912
277,gadzhiyevo,69.2551,33.3362,280.52,76,52,2.82,RU,1688924912
278,ashburton,-37.8626,145.0794,286.27,75,100,2.24,AU,1688924912
279,sandnessjoen,66.0217,12.6316,291.44,67,0,4.12,NO,1688924912
280,xuddur,4.1213,43.8894,298.51,60,72,9.28,SO,1688924912
281,al bardiyah,31.7561,25.0865,299.26,67,0,5.4,LY,1688924913
282,karlskoga,59.3267,14.5239,297.77,53,90,1.15,SE,1688924913
283,harper,4.375,-7.7169,298.54,86,39,4.78,LR,1688924913
284,atafu village,-8.5421,-172.5159,301.73,78,100,7.69,TK,1688924913
285,camarinas,43.1311,-9.1817,294.22,74,51,3.88,ES,1688924913
286,hirson,49.9226,4.0826,292.89,95,95,4.43,FR,1688924923
287,nelson bay,-32.7167,152.15,285.93,76,0,3.58,AU,1688924924
288,merritt island,28.5392,-80.672,309.26,56,0,4.63,US,1688924924
289,st. john's,47.5649,-52.7093,292.75,90,100,2.57,CA,1688924924
290,puerto baquerizo moreno,-0.9,-89.6,300.7,74,75,6.17,EC,1688924924
291,rio grande,-32.035,-52.0986,293.21,74,74,5.68,BR,1688924924
292,kristinehamn,59.3098,14.1081,298.46,59,88,1.71,SE,1688924924
293,cheria,35.2731,7.7519,302.27,29,93,10.49,DZ,1688924924
294,new norfolk,-42.7826,147.0587,286.87,74,78,4.64,AU,1688924924
295,morondava,-20.2833,44.2833,295.46,80,15,3.2,MG,1688924925
296,karratha,-20.7377,116.8463,291.43,28,2,4.7,AU,1688924925
297,eyl,7.9803,49.8164,298.59,77,68,10.42,SO,1688924925
298,tyazhinskiy,56.116,88.524,288.26,96,71,2.37,RU,1688924925
299,ceeldheer,3.8488,47.1806,298.82,77,55,9.64,SO,1688924925
300,vilyuchinsk,52.9306,158.4028,286.3,96,98,1.71,RU,1688924925
301,alice springs,-23.7,133.8833,277.9,87,5,3.48,AU,1688924849
302,berbera,10.4396,45.0143,308.26,39,28,6.62,SO,1688924925
303,murray bridge,-35.1167,139.2667,284.45,81,77,3.26,AU,1688924925
304,west mackay,-21.1481,149.1605,287.4,56,7,3.13,AU,1688924926
305,crucecita,-28.95,-58.9833,291.84,70,100,2.64,AR,1688924926
306,vila franca do campo,37.7167,-25.4333,296.38,70,64,2.99,PT,1688924926
307,annau,37.8876,58.516,307.87,13,0,5.14,TM,1688924926
308,west lafayette,40.4259,-86.9081,299.38,61,0,2.06,US,1688924926
309,zaozersk,69.4005,32.4476,280.96,76,61,2.47,RU,1688924926
310,vadso,70.0744,29.7487,284.64,76,0,5.14,NO,1688924926
311,kamyzyak,46.11,48.0736,300.14,69,0,5.0,RU,1688924927
312,crane,31.3974,-102.3501,308.74,31,20,4.56,US,1688924927
313,castillos,-34.1667,-53.8333,288.88,74,99,2.53,UY,1688924927
314,nantucket,41.2835,-70.0995,299.23,83,100,3.09,US,1688924927
315,labrador city,52.9463,-66.9114,299.1,44,75,5.66,CA,1688924713
316,ponta delgada,37.7333,-25.6667,296.55,78,20,4.12,PT,1688924927
317,polyarnyy,69.1989,33.4478,280.89,75,42,2.93,RU,1688924927
318,kimbe,-5.5502,150.1429,297.39,96,100,1.88,PG,1688924913
319,maceio,-9.6658,-35.7353,298.84,88,100,2.57,BR,1688924928
320,krasnyy chikoy,50.3643,108.7512,288.51,90,87,0.97,RU,1688924928
321,chernyshevskiy,63.0128,112.4714,287.82,73,86,1.97,RU,1688924928
322,mili,6.0815,171.735,300.98,76,100,6.0,MH,1688924928
323,patnongon,10.9132,121.9937,299.0,81,100,1.39,PH,1688924928
324,konstantinovka,49.6167,127.9833,290.4,82,100,2.94,RU,1688924928
325,roma,43.2128,-75.4557,300.83,74,20,4.12,US,1688924901
326,san juan de miraflores,-12.1629,-76.9635,294.44,68,24,4.13,PE,1688924928
327,hami,42.8,93.45,302.37,27,100,1.54,CN,1688924928
328,felipe carrillo puerto,19.5833,-88.05,307.48,47,41,3.91,MX,1688924929
329,bestobe,52.4994,73.0975,294.86,48,58,2.29,KZ,1688924929
330,ulundi,-28.3352,31.4162,281.79,82,100,5.78,ZA,1688924929
331,tuy hoa,13.0833,109.3,296.94,90,30,2.46,VN,1688924929
332,mossel bay,-34.1831,22.146,284.11,67,22,6.79,ZA,1688924929
333,samana,19.2056,-69.3369,306.27,66,40,4.12,DO,1688924929
334,kolokani,13.5728,-8.0339,309.24,30,28,3.09,ML,1688924929
335,kupang,-10.1667,123.5833,297.47,78,20,4.12,ID,1688924929
336,xianju,28.85,120.7333,299.44,93,65,0.75,CN,1688924940
337,abu jibeha,11.4562,31.2285,298.44,73,100,0.99,SD,1688924940
338,edd,13.9297,41.6925,306.82,62,100,2.67,ER,1688924940
339,puerto colombia,10.9878,-74.9547,306.2,78,72,6.48,CO,1688924940
340,kavieng,-2.5744,150.7967,298.81,85,100,2.46,PG,1688924940
341,kapa'a,22.0752,-159.319,298.33,85,100,10.29,US,1688924940
342,minas de marcona,-15.2119,-75.1103,292.93,48,3,5.05,PE,1688924941
343,greymouth,-42.4667,171.2,281.08,93,100,1.94,NZ,1688924941
344,kununurra,-15.7667,128.7333,291.14,52,34,3.09,AU,1688924941
345,raduzhny,62.0961,77.475,288.49,77,71,1.48,RU,1688924941
346,volksrust,-27.3654,29.8818,277.71,36,17,3.68,ZA,1688924941
347,steamboat springs,40.485,-106.8317,298.34,31,0,2.06,US,1688924942
348,bang saphan,11.2126,99.5117,297.46,94,100,1.59,TH,1688924942
349,khandyga,62.6667,135.6,281.3,52,45,1.75,RU,1688924942
350,cockburn town,21.4612,-71.1419,301.57,81,57,6.57,TC,1688924942
351,khrenovoye,51.12,40.2889,290.12,94,99,6.95,RU,1688924943
352,ulsteinvik,62.3432,5.8487,296.99,71,100,2.82,NO,1688924943
353,portage,41.1667,-81.1998,299.32,58,75,2.57,US,1688924943
354,masina,-4.3836,15.3914,297.34,78,71,0.0,CD,1688924943
355,utrik,11.2278,169.8474,301.19,78,95,8.03,MH,1688924949
356,taulaga,-11.0553,-171.0883,301.46,77,89,7.22,AS,1688924949
357,yabassi,4.457,9.9682,297.02,96,63,1.37,CM,1688924949
358,yashikira,9.7667,3.4,296.89,89,100,2.59,NG,1688924950
359,senador jose porfirio,-2.5908,-51.9542,301.43,70,37,0.47,BR,1688924950
360,mazatlan,23.2167,-106.4167,305.32,75,60,2.24,MX,1688924950
361,kushiro,42.975,144.3747,290.37,100,99,1.61,JP,1688924950
362,chernushka,56.5072,56.0766,291.17,96,100,4.0,RU,1688924951
363,thinadhoo,0.5333,72.9333,300.69,73,49,1.33,MV,1688924951
364,quellon,-43.1167,-73.6167,282.29,87,100,2.06,CL,1688924951
365,saint-pierre,-21.3393,55.4781,293.97,68,0,3.6,RE,1688924951
366,koraput,18.8167,82.7167,296.07,84,98,1.81,IN,1688924951
367,la junta,37.985,-103.5438,298.74,75,40,3.6,US,1688924951
368,prairie grove,35.9759,-94.3177,300.11,74,91,1.54,US,1688924952
369,great falls,47.5002,-111.3008,302.97,37,0,1.54,US,1688924952
370,taloda,21.5667,74.2167,299.36,91,100,6.8,IN,1688924952
371,magdagachi,53.45,125.8,286.0,56,0,2.7,RU,1688924952
372,palora,-1.7,-77.9333,294.21,99,100,1.27,EC,1688924952
373,patterson,37.4716,-121.1297,296.49,24,0,1.29,US,1688924775
374,montmagny,48.9734,2.3469,299.39,59,0,5.14,FR,1688924953
375,al faw,29.9776,48.4741,314.15,19,0,5.16,IQ,1688924953
376,alpena,45.0617,-83.4327,295.99,70,75,2.57,US,1688924953
377,clocolan,-28.9137,27.5656,275.65,34,29,6.0,ZA,1688924954
378,qom,34.6401,50.8764,308.15,11,0,4.82,IR,1688924954
379,touros,-5.1989,-35.4608,300.87,70,22,5.83,BR,1688924954
380,baoqing,46.3317,132.2111,290.55,94,24,3.07,CN,1688924954
381,kalemie,-5.9475,29.1947,295.72,56,5,0.68,CD,1688924954
382,bikramganj,25.2,84.25,307.51,49,85,0.96,IN,1688924954
383,tura,25.5198,90.2201,297.27,97,96,2.04,IN,1688924955
384,tsetserleg,47.475,101.4542,287.02,92,100,2.33,MN,1688924965
385,jayapura,-2.5333,140.7,297.81,93,96,1.97,ID,1688924965
386,xilin hot,43.9667,116.0333,290.47,73,30,1.6,CN,1688924965
387,omamacho-omama,36.4333,139.2833,295.76,88,78,1.62,JP,1688924966
388,sinop,41.7711,34.8709,290.82,98,95,2.01,TR,1688924966
389,punta arenas,-53.15,-70.9167,277.21,81,0,6.69,CL,1688924966
390,haiku-pauwela,20.9219,-156.3051,297.62,77,40,5.66,US,1688924966
391,clarksdale,34.2001,-90.5709,302.14,79,20,4.12,US,1688924966
392,kruisfontein,-34.0033,24.7314,282.53,76,60,6.76,ZA,1688924967
393,ar ruways,24.1103,52.7306,304.64,69,27,2.35,AE,1688924967
394,rio de janeiro,-22.9028,-43.2075,297.12,72,100,4.12,BR,1688924747
395,al marj,32.488,20.8317,295.76,78,0,3.34,LY,1688924967
396,ad dilam,23.9915,47.1627,314.38,8,6,3.96,SA,1688924967
397,nyala,12.05,24.8833,304.58,40,48,4.05,SD,1688924967
398,bengkulu,-3.8004,102.2655,297.2,94,75,1.94,ID,1688924695
399,siwa oasis,29.2041,25.5195,305.82,24,0,8.15,EG,1688924968
400,zyryanskoye,56.8306,86.6258,288.95,80,98,1.87,RU,1688924968
401,dawesville,30.9224,-84.0091,305.02,74,75,3.13,US,1688924968
402,libertad,8.9442,125.5019,298.4,89,100,2.43,PH,1688924968
403,choibalsan,48.0667,114.5,289.75,94,98,2.65,MN,1688924968
404,tofol,5.3248,163.0078,301.17,77,100,5.59,FM,1688924969
405,paredon,16.0333,-93.8667,304.01,63,89,3.29,MX,1688924969
406,callao,-12.0667,-77.15,295.31,68,100,4.63,PE,1688924969
407,mejit,10.2753,170.8646,301.24,73,100,7.96,MH,1688924969
408,kampong thom,12.7111,104.8887,298.88,84,81,2.36,KH,1688924969
409,petropavlovsk-kamchatsky,53.0452,158.6483,285.48,100,75,2.0,RU,1688924969
410,lumphat,13.4878,106.9816,296.59,98,90,0.63,KH,1688924970
411,oranjemund,-28.55,16.4333,285.73,75,0,9.24,NA,1688924970
412,labatlan,47.7473,18.4962,298.44,59,0,1.98,HU,1688924970
413,wilson,36.1501,-86.2833,299.71,86,100,0.0,US,1688924685
414,coahuayana de hidalgo,18.7,-103.6583,305.44,56,76,2.73,MX,1688924970
415,novoishimskiy,53.1981,66.7694,295.2,55,19,3.17,KZ,1688924970
416,varnamo,57.186,14.04,295.79,52,63,1.58,SE,1688924971
417,emerald,-23.5333,148.1667,283.34,67,89,4.71,AU,1688924971
418,sydney mines,46.2367,-60.2177,302.18,79,75,4.12,CA,1688924971
419,huayacocotla,20.55,-98.4833,296.12,55,75,4.2,MX,1688924971
420,masindi,1.6744,31.715,293.44,73,80,0.84,UG,1688924971
421,luninyets,52.2472,26.8047,290.46,72,60,3.3,BY,1688924972
422,neelankarai,12.9455,80.2575,300.18,89,75,3.09,IN,1688924972
423,tauranga,-37.6861,176.1667,285.18,86,99,1.34,NZ,1688924972
424,kabansk,52.0486,106.6528,285.76,99,95,0.31,RU,1688924972
425,al jawf,29.5,38.75,304.67,13,0,3.94,SA,1688924972
426,sierra grande,-41.606,-65.3557,280.64,61,58,5.25,AR,1688924973
427,tyukhtet,56.5389,89.3011,287.7,98,73,2.43,RU,1688924973
428,belmonte,-15.8631,-38.8828,299.94,71,9,3.65,BR,1688924973
429,berekua,15.2333,-61.3167,306.67,52,20,2.06,DM,1688924973
430,international falls,48.6011,-93.411,298.79,67,0,4.63,US,1688924973
431,bakchar,57.0186,82.0711,286.15,89,17,1.99,RU,1688924974
432,benguela,-12.5763,13.4055,293.42,87,24,2.85,AO,1688924984
433,vernon,50.2581,-119.2691,303.49,36,0,1.03,CA,1688924907
434,edgewater,28.9889,-80.9023,308.8,48,8,2.18,US,1688924985
435,bafq,31.6128,55.4107,307.26,11,0,2.68,IR,1688924985
436,grand forks,47.9417,-97.4337,301.36,47,20,5.66,US,1688924986
437,puerto aysen,-45.4,-72.7,277.94,94,95,0.75,CL,1688924889
438,pangody,65.85,74.4859,285.0,73,37,3.58,RU,1688924986
439,almirante tamandare,-25.3247,-49.31,288.83,97,100,2.57,BR,1688924986
440,mogadishu,2.0371,45.3438,298.67,85,42,9.26,SO,1688924986
441,ixtapa,20.7,-105.2,307.16,57,33,1.34,MX,1688924986
442,fada,9.5667,8.3,293.94,96,90,0.66,NG,1688924987
443,mabaruma,8.2,-59.7833,300.22,92,49,2.71,GY,1688924987
444,don sak,9.3168,99.6918,299.24,83,100,3.36,TH,1688924987
445,oshnaviyeh,37.0397,45.0983,294.68,35,0,4.49,IR,1688924987
446,saudarkrokur,65.7461,-19.6394,288.57,58,41,2.15,IS,1688924987
447,portland,45.5234,-122.6762,297.31,57,20,2.06,US,1688924948
448,holualoa,19.6228,-155.9522,296.92,85,75,4.12,US,1688924987
449,linhares,-19.3911,-40.0722,300.97,44,6,5.37,BR,1688924988
450,alaghsas,17.0187,8.0168,309.38,21,72,1.68,NE,1688924988
451,broome,42.2506,-75.833,296.58,86,0,1.54,US,1688924988
452,tobelo,1.7284,128.0095,299.38,85,100,1.83,ID,1688924988
453,shilovo,54.3204,40.874,289.79,96,100,8.08,RU,1688924988
454,bousso,10.4795,16.7117,300.62,64,100,1.34,TD,1688924988
455,roswell,34.0232,-84.3616,304.84,61,0,5.66,US,1688924752
456,serov,59.6033,60.5787,291.37,94,78,1.7,RU,1688924989
457,rockwood,35.8656,-84.6849,302.57,76,75,1.54,US,1688924989
458,taksimo,56.3444,114.8794,291.57,58,91,0.18,RU,1688924989
459,zarand,30.8127,56.564,301.39,14,0,3.14,IR,1688924989
460,chimoio,-19.1164,33.4833,295.07,49,20,1.36,MZ,1688924799
461,kismayo,-0.3582,42.5454,298.31,79,39,8.25,SO,1688924989
462,chesapeake ranch estates,38.3462,-76.4177,304.1,75,20,3.09,US,1688924989
463,la gi,10.6667,107.7833,299.18,82,72,1.86,VN,1688924990
464,ola,59.5833,151.2833,286.01,94,100,2.11,RU,1688924990
465,ubari,26.5921,12.7805,308.32,17,31,4.23,LY,1688924990
466,bayji,34.9311,43.487,309.03,18,0,4.01,IQ,1688924990
467,spearfish,44.4908,-103.8594,301.08,39,0,1.79,US,1688924990
468,weissenfels,51.2,11.9667,306.31,51,19,3.27,DE,1688924990
469,santiago de cao,-7.9589,-79.2392,296.22,78,100,4.12,PE,1688924990
470,nefta,33.8731,7.8777,321.29,14,5,7.53,TN,1688924990
471,mitsamiouli,-11.3847,43.2844,299.31,65,20,4.12,KM,1688924991
472,lorengau,-2.0226,147.2712,299.61,82,100,2.52,PG,1688924991
473,salgueiro,-8.0742,-39.1192,304.75,35,49,3.6,BR,1688924991
474,tamanrasset,22.785,5.5228,307.1,11,0,5.66,DZ,1688924991
475,yunyang,33.4474,112.7142,299.2,94,14,3.97,CN,1688924991
476,manfalut,27.3104,30.97,308.29,18,0,7.7,EG,1688924991
477,olinda,-8.0089,-34.8553,301.0,78,75,2.06,BR,1688924991
478,kone,-21.0595,164.8658,289.19,87,27,1.82,NC,1688924992
479,muravlenko,63.7898,74.523,290.72,68,76,2.93,RU,1688924992
480,gizo,-8.103,156.8419,300.38,83,100,7.33,SB,1688924992
481,nabire,-3.3667,135.4833,297.41,93,92,1.37,ID,1688925002
482,prado,-17.3411,-39.2208,298.75,75,0,4.65,BR,1688924760
483,kiunga,-6.1219,141.2906,296.59,99,99,1.24,PG,1688925003
484,kumbo,6.2,10.6667,289.22,97,97,1.8,CM,1688925003
485,preobrazheniye,42.9019,133.9064,290.79,90,100,2.94,RU,1688925003
486,nandgaon,20.3167,74.65,298.23,81,100,7.6,IN,1688925004
487,gurupi,-11.7292,-49.0686,309.55,18,0,1.41,BR,1688925004
488,cambridge,43.3601,-80.3127,298.28,68,100,1.54,CA,1688924863
489,santa elena de uairen,4.6167,-61.1333,297.9,72,42,2.65,VE,1688925004
490,novotroitsk,51.203,58.3266,304.54,31,98,1.58,RU,1688925005
491,calp,38.6447,0.0445,304.02,73,65,2.73,ES,1688925005
492,canning,22.3189,88.6714,303.16,86,76,3.52,IN,1688925005
493,sinan,34.8262,126.1086,298.21,97,87,6.27,KR,1688925005
494,mana,5.6592,-53.7767,300.88,83,13,2.87,GF,1688925006
495,boguchany,58.3814,97.4531,289.81,96,99,0.72,RU,1688925006
496,niagara falls,43.1001,-79.0663,298.76,72,100,3.6,CA,1688925006
497,belyy yar,53.6039,91.3903,290.09,88,0,1.0,RU,1688925006
498,laojunmiao,39.8333,97.7333,297.51,32,79,1.52,CN,1688925006
499,tarakan,3.3,117.6333,299.94,78,75,0.93,ID,1688925007
500,necochea,-38.5473,-58.7368,286.48,68,82,4.89,AR,1688925008
501,mananjary,-21.2167,48.3333,293.5,86,8,2.76,MG,1688925008
502,miranda,3.2499,-76.2281,301.22,53,47,1.82,CO,1688925008
503,ocean shores,46.9737,-124.1563,290.38,73,100,3.6,US,1688925009
504,cole harbour,44.6724,-63.4751,302.14,82,69,5.66,CA,1688924975
505,hooper,41.1638,-112.1224,304.84,26,0,3.13,US,1688925009
506,bangar,16.8936,120.4243,298.88,85,23,1.87,PH,1688925009
507,retreat,38.8245,-85.8533,298.36,62,86,2.24,US,1688925010
508,pacasmayo,-7.4006,-79.5714,297.47,72,78,6.54,PE,1688925010
509,auki,-8.7676,160.7034,297.83,91,96,2.33,SB,1688925010
510,torghay,49.6339,63.4981,301.23,21,2,3.58,KZ,1688925010
511,gazojak,41.1875,61.4036,306.51,15,0,2.86,TM,1688925010
512,phan rang-thap cham,11.5667,108.9833,298.31,86,69,1.9,VN,1688925011
513,luebo,-5.35,21.4167,298.37,33,25,0.41,CD,1688925011
514,maluso,6.543,121.8753,299.4,82,99,0.43,PH,1688925011
515,korla,41.7597,86.1469,299.51,42,100,6.09,CN,1688924747
516,svetlyy,54.675,20.1347,294.18,69,4,2.51,RU,1688925012
517,leh,34.1667,77.5833,282.76,90,100,1.2,IN,1688925012
518,susanville,40.4163,-120.653,299.88,28,0,3.13,US,1688924873
519,akjoujt,19.6969,-14.4164,317.88,8,1,7.28,MR,1688925012
520,morshyn,49.1565,23.8723,292.03,79,44,0.47,UA,1688925013
521,luau,-10.7073,22.2247,293.43,31,1,1.14,AO,1688925013
522,kovdor,67.5662,30.4758,286.1,53,54,2.16,RU,1688925013
523,ha tien,10.3833,104.4833,300.4,78,100,1.82,VN,1688925013
524,iquitos,-3.7481,-73.2472,301.17,89,40,1.54,PE,1688924823
525,ha'il,27.5219,41.6907,309.16,15,0,1.03,SA,1688925024
526,kinwat,19.6333,78.2,300.36,74,95,3.17,IN,1688925025
527,saint-francois,46.4154,3.9054,305.84,43,0,4.12,FR,1688924762
528,pitimbu,-7.4706,-34.8086,301.48,76,17,5.68,BR,1688925025
529,trairi,-3.2778,-39.2689,302.46,61,27,6.49,BR,1688925026
530,morden,49.1919,-98.1014,300.42,39,28,6.69,CA,1688924863
531,bamboo flat,11.7,92.7167,298.2,94,100,2.57,IN,1688925026
532,mirny,62.5353,113.9611,288.11,71,63,1.6,RU,1688925026
533,margate,51.3813,1.3862,291.87,83,100,2.24,GB,1688924985
534,santa maria da vitoria,-13.3947,-44.1886,307.4,20,10,0.67,BR,1688925026
535,port alberni,49.2413,-124.8028,294.33,52,0,1.1,CA,1688925026
536,ust'-barguzin,53.45,108.9833,288.26,91,67,2.78,RU,1688925027
537,okahao,-17.885,15.0667,291.42,23,0,3.3,NA,1688925027
538,mahina,-17.5065,-149.489,299.02,78,40,2.57,PF,1688925027
539,merizo village,13.2658,144.6691,299.46,98,100,4.9,GU,1688925027
540,nizhneangarsk,55.7833,109.55,287.77,83,91,1.6,RU,1688925027
541,tashtyp,52.7939,89.8983,287.35,90,46,2.27,RU,1688924810
542,mangrol,21.1167,70.1167,300.93,84,100,7.2,IN,1688925028
543,vorkuta,67.5,64.0,282.44,76,98,4.63,RU,1688925028
544,yaren,-0.5472,166.916,299.61,84,100,3.69,NR,1688925028
545,yatou,37.15,122.3833,295.46,89,20,3.28,CN,1688925028
546,kilindoni,-7.9139,39.6668,298.44,76,12,5.06,TZ,1688925028
547,ugoofaaru,5.6667,73.0,301.95,71,71,5.2,MV,1688925028
548,aoulef,26.9667,1.0833,316.05,5,0,7.61,DZ,1688925029
549,dzuunharaa,48.8523,106.4579,288.98,88,58,0.7,MN,1688925029
550,hobyo,5.3505,48.5268,298.98,80,38,13.39,SO,1688925029
551,trinidad,-14.8333,-64.9,305.14,62,40,7.2,BO,1688925029
552,horta,38.5333,-28.6333,294.27,94,75,2.24,PT,1688924818
553,lalibela,12.0333,39.0333,291.66,66,99,1.31,ET,1688925030
554,santana,-0.0583,-51.1817,305.25,62,40,3.09,BR,1688925017
555,houghton,47.1219,-88.569,296.33,47,75,5.14,US,1688925030
556,lagos de moreno,21.35,-101.9167,299.42,51,51,1.0,MX,1688925030
557,loen,7.7601,168.2307,301.25,77,86,5.56,MH,1688925030
558,zapolyarnyy,69.4154,30.8136,283.75,65,88,2.1,RU,1688925031
559,yulinshi,38.2906,109.7494,300.1,30,87,3.22,CN,1688925031
560,santa cruz,-17.8,-63.1667,299.85,78,75,9.26,BO,1688925032
561,barranca,-10.75,-77.7667,295.8,66,13,4.94,PE,1688925032
562,moa,20.6569,-74.9403,304.87,65,6,5.91,CU,1688925032
563,dutse,11.7594,9.3392,303.84,43,75,4.08,NG,1688925032
564,jutai,-5.1833,-68.9,307.19,43,14,1.6,BR,1688925033
565,mahibadhoo,3.7833,72.9667,301.36,71,34,3.74,MV,1688925033
566,dourdan,48.5277,2.0111,299.06,69,95,4.12,FR,1688925033
567,az zulfi,26.2995,44.8154,311.36,8,1,2.84,SA,1688925033
568,deridder,30.8463,-93.289,305.9,84,100,4.12,US,1688925033
569,pratt,37.6439,-98.7376,298.01,53,0,2.06,US,1688925034
